<?xml version="1.0" encoding="UTF-8"?>
<kml xmlns="http://earth.google.com/kml/2.2">
<Document>
  <Placemark>
    <name>Beddington Pentecostal Church &amp; Agape Language Centre</name>
    <description><![CDATA[<div dir="ltr">Offers ESL classes throughout the week at Agape Language Centre. Beddington Pentecostal Church also offers ESL Bible studies and Alpha ESOL. <br>www.agapelanguagecentre.com</div>]]></description>
    <styleUrl>#style15</styleUrl>
    <Point>
      <coordinates>-114.076279,51.127686,0.000000</coordinates>
    </Point>
  </Placemark>
    <Placemark>
    <name>Bethany Chapel</name>
    <description><![CDATA[<div dir="ltr">Conversation class. Wednesdays 7:00-8:30 p.m. Sept. 28 – Nov. 30. Childcare is available.<br>www.bethanychapel.com</div>]]></description>
    <styleUrl>#style20</styleUrl>
    <Point>
      <coordinates>-114.133744,51.015996,0.000000</coordinates>
    </Point>
  </Placemark>
  <Placemark>
    <name>Bow Valley Christian Church</name>
    <description><![CDATA[<div dir="ltr">Offers an ESL Conversation Club Mondays from 7:00-9:00 pm. Also ESL Bible study available.<br>www.bvccweb.ca</div>]]></description>
    <styleUrl>#style20</styleUrl>
    <Point>
      <coordinates>-114.162109,51.101864,0.000000</coordinates>
    </Point>
  </Placemark>
  <Placemark>
    <name>Brentview Baptist Church</name>
    <description><![CDATA[<div dir="ltr">Offers an International Bible study and worship service on Sundays. <br>www.brentviewbaptist.com</div>]]></description>
    <styleUrl>#style11</styleUrl>
    <Point>
      <coordinates>-114.123444,51.084316,0.000000</coordinates>
    </Point>
  </Placemark>
  <Placemark>
    <name>Calgary Community Church</name>
    <description><![CDATA[<div dir="ltr">Community conversation class, supper, childcare. Sundays 5:30–8:00pm</div>]]></description>
    <styleUrl>#style14</styleUrl>
    <Point>
      <coordinates>-114.1678812,51.0767628,0.000000</coordinates>
    </Point>
  </Placemark>
  <Placemark>
    <name>Calgary Chinese Evangelical Free Church</name>
    <description><![CDATA[<div dir="ltr">Mondays 6:00-9:00 pm beginner ESL class.<br>Tuesdays 6:30-9:00 pm advanced ESL class.<br>Saturdays 9:00 am - 12:00 pm intermediate ESL class.<br>People of all ethnicities are very welcome.<br>www.ccefc.ca/event/esl.html</div>]]></description>
    <styleUrl>#style14</styleUrl>
    <Point>
      <coordinates>-114.099823,51.070541,0.000000</coordinates>
    </Point>
  </Placemark>
  <Placemark>
    <name>Canyon Creek Christian Fellowship</name>
    <description><![CDATA[<div dir="ltr">Conversation class, Tues 7:00-8:30 pm</div>]]></description>
    <styleUrl>#style14</styleUrl>
    <Point>
      <coordinates>-114.0612415,50.906899,0.000000</coordinates>
    </Point>
  </Placemark>
  <Placemark>
    <name>Central United Church</name>
    <description><![CDATA[<div dir="ltr">'Let's Talk' – free conversation classes, Tuesday p.m.<br></div>]]></description>
    <styleUrl>#style33</styleUrl>
    <Point>
      <coordinates>-114.0651334,51.0465258,0.000000,0.000000</coordinates>
    </Point>
  </Placemark>
  <Placemark>
    <name>Centre Street Church</name>
    <description><![CDATA[<div dir="ltr">Offers an ESL Bible study Wednesday nights 7:00 pm – 8:30 pm.<br>www.cschurch.ca</div>]]></description>
    <styleUrl>#style33</styleUrl>
    <Point>
      <coordinates>-114.062164,51.088913,0.000000</coordinates>
    </Point>
  </Placemark>
  <Placemark>
    <name>Christian Life Assembly</name>
    <description><![CDATA[<div dir="ltr">Conversation class, Wednesdays, 7:00-8:30 p.m., Sept. 21 – Nov. 16. Childcare.<br> </div>]]></description>
    <styleUrl>#style2</styleUrl>
    <Point>
      <coordinates>-114.1278304,51.0260766,0.000000</coordinates>
    </Point>
  </Placemark>
  <Placemark>
    <name>Chinese Pentecostal Church</name>
    <description><![CDATA[<div dir="ltr">Offers an ESL class on Saturday mornings at 9:30 am.<br> </div>]]></description>
    <styleUrl>#style2</styleUrl>
    <Point>
      <coordinates>-114.062012,51.051105,0.000000</coordinates>
    </Point>
  </Placemark>
  <Placemark>
    <name>Covenant Church Millrise</name>
    <description><![CDATA[<div dir="ltr">ESL Conversation Class on Thursdays 7:00-8:30 pm (no charge, includes refreshments).<br>www.covenantmillrise.org</div>]]></description>
    <styleUrl>#style6</styleUrl>
    <Point>
      <coordinates>-114.074738,50.919090,0.000000</coordinates>
    </Point>
  </Placemark>
  <Placemark>
    <name>Cross Pointe Lutheran</name>
    <description><![CDATA[<div dir="ltr">Beginners ESL, Wednesdays 5:30-6:30 pm. Meets at #100, 333 Shawville Blvd SE (in Trailblazer room - South Fish Creek Rec Assn).<br>www.crosspointechurch.ca</div>]]></description>
    <styleUrl>#style1</styleUrl>
    <Point>
      <coordinates>-114.062935,50.899242,0.000000</coordinates>
    </Point>
  </Placemark>
  <Placemark>
    <name>Emmanuel Christian Reformed Church</name>
    <description><![CDATA[<div dir="ltr">ESL Bible study for women, Thursday am. Childcare available.<br></div>]]></description>
    <styleUrl>#style4</styleUrl>
    <Point>
      <coordinates>-114.160736,51.029480,0.000000</coordinates>
    </Point>
  </Placemark>
  <Placemark>
    <name>Expressions Community</name>
    <description><![CDATA[<div dir="ltr">‘Conversations in ESL’ group meets every second Sunday from 2:00–3:30 pm. Meets at McKenzie Towne Church (7 McKenzie Towne Gate SE).<br>http://expressionscommunity.org</div>]]></description>
    <styleUrl>#style17</styleUrl>
    <Point>
      <coordinates>-113.962364,50.915398,0.000000</coordinates>
    </Point>
  </Placemark>
  <Placemark>
    <name>Falconridge Full Gospel Tabernacle</name>
    <description><![CDATA[<div dir="ltr">www.fullgospeltabernacle.org</div>]]></description>
    <styleUrl>#style29</styleUrl>
    <Point>
      <coordinates>-113.951355,51.096394,0.000000</coordinates>
    </Point>
  </Placemark>
  <Placemark>
    <name>Forest Lawn Mission Community Church</name>
    <description><![CDATA[<div dir="ltr">Conversation Class, Spanish class for children, Wednesdays, 5:30-6:30 p.m.</div>]]></description>
    <styleUrl>#style29</styleUrl>
    <Point>
      <coordinates>-113.9802611,51.0362946,0.000000</coordinates>
    </Point>
  </Placemark>
  <Placemark>
    <name>First Alliance Church</name>
    <description><![CDATA[<div dir="ltr">Alpha ESOL program runs every Thursday night.<br>www.faccalgary.com</div>]]></description>
    <styleUrl>#style10</styleUrl>
    <Point>
      <coordinates>-113.973495,50.939053,0.000000</coordinates>
    </Point>
  </Placemark>
  <Placemark>
    <name>First Baptist Church</name>
    <description><![CDATA[<div dir="ltr">First Baptist Church offers ESL classes throughout the week, and free conversation on Wednesday and Thursday nights. <br>www.firstbaptistcalgary.com</div>]]></description>
    <styleUrl>#style27</styleUrl>
    <Point>
      <coordinates>-114.071793,51.040531,0.000000</coordinates>
    </Point>
  </Placemark>
  <Placemark>
    <name>Foothills Alliance Church</name>
    <description><![CDATA[<div dir="ltr">Offers several ESL classes throughout the week and Bible studies. <br>www.foothillsalliance.com/What_we_do/esl.asp</div>]]></description>
    <styleUrl>#style18</styleUrl>
    <Point>
      <coordinates>-114.157501,51.136936,0.000000</coordinates>
    </Point>
  </Placemark>
  <Placemark>
    <name>Grace Presbyterian Church</name>
    <description><![CDATA[<div dir="ltr">http://gracecalgary.org</div>]]></description>
    <styleUrl>#style28</styleUrl>
    <Point>
      <coordinates>-114.084480,51.038994,0.000000</coordinates>
    </Point>
  </Placemark>
  <Placemark>
    <name>Glenmore Temple</name>
    <description><![CDATA[<div dir="ltr">Alpha for ESOL Sundays, ESL Conversation Mondays 7:00-8:30 pm.</div>]]></description>
    <styleUrl>#style28</styleUrl>
    <Point>
      <coordinates>-114.0830134,50.9923584,0.000000</coordinates>
    </Point>
  </Placemark>
  <Placemark>
    <name>Harvest Hills Alliance Church</name>
    <description><![CDATA[<div dir="ltr">ESL classes:<br>Tues 7:00-9:00 pm intermediate, <br>Wed 9:15-11:15 am Bible study, <br>Thurs 7:00-9:00 pm intermediate, <br>Sun 10:45 am - 12:15 pm <br>(all classes 8 weeks long, $25)<br>www.harvesthillsalliance.com</div>]]></description>
    <styleUrl>#style31</styleUrl>
    <Point>
      <coordinates>-114.063858,51.146740,0.000000</coordinates>
    </Point>
  </Placemark>
  <Placemark>
    <name>Hawkwood Baptist Fellowship</name>
    <description><![CDATA[<div dir="ltr">ESL group for Spanish speakers starts runs Tuesdays from 7:00-9:00 pm. Also new in 2009: an ESL class for youth aged 18 and under, and an Alpha ESOL program. <br>www.hawkwood.ca</div>]]></description>
    <styleUrl>#style22</styleUrl>
    <Point>
      <coordinates>-114.187691,51.126072,0.000000</coordinates>
    </Point>
  </Placemark>
  <Placemark>
    <name>Highland Mennonite Brethren Church</name>
    <description><![CDATA[<div dir="ltr">www.highlandchurch.ca</div>]]></description>
    <styleUrl>#style7</styleUrl>
    <Point>
      <coordinates>-114.063515,51.088039,0.000000</coordinates>
    </Point>
  </Placemark>
  <Placemark>
    <name>International Student Ministries Calgary</name>
    <description><![CDATA[<div dir="ltr">ESL class Fridays 3:30-4:30 pm, followed by a Bible study 4:30-5:30 pm (meets at University of Calgary in the MacEwan Student Center).<br><br>FOCUS on Fridays 6:30-9:30 pm (at Brentview Baptist Church.)</div>]]></description>
    <styleUrl>#style32</styleUrl>
    <Point>
      <coordinates>-114.133873,51.078777,0.000000</coordinates>
    </Point>
  </Placemark>
  <Placemark>
    <name>King&#39;s Court</name>
    <description><![CDATA[<div dir="ltr">ESL on Sundays 11:30 am - 12:30 pm. $150 deposit to register, which will be returned to you upon completion of course. New courses run every 3 months.<br>www.rccgairdrie.org</div>]]></description>
    <styleUrl>#style24</styleUrl>
    <Point>
      <coordinates>-114.003326,51.288494,0.000000</coordinates>
    </Point>
  </Placemark>
  <Placemark>
    <name>Lakeview Baptist Church</name>
    <description><![CDATA[<div dir="ltr">English conversation classes, Thursdays 7:00-8:30 pm. Sept. 15 – Dec. 15.<br>www.lakeviewbc.ca</div>]]></description>
    <styleUrl>#style34</styleUrl>
    <Point>
      <coordinates>-114.137435,51.006761,0.000000</coordinates>
    </Point>
  </Placemark>
  <Placemark>
    <name>Lighthouse Church</name>
    <description><![CDATA[<div dir="ltr">ESL classes on Tuesdays from 7:00-9:00 pm. Grammar, pronunciation, Canadian culture and idioms.<br>www.calgarylighthouse.com</div>]]></description>
    <styleUrl>#style34</styleUrl>
    <Point>
      <coordinates>-114.076324,50.965778,0.000000</coordinates>
    </Point>
  </Placemark>
  <Placemark>
    <name>METRO Church</name>
    <description><![CDATA[<div dir="ltr">Conversational ESL on Tuesdays 7:00-9:00 pm.<br>www.metrochurchcalgary.org</div>]]></description>
    <styleUrl>#style26</styleUrl>
    <Point>
      <coordinates>-113.959061,51.020924,0.000000</coordinates>
    </Point>
  </Placemark>
  <Placemark>
    <name>Richmond Hill Baptist Church</name>
    <description><![CDATA[<div dir="ltr">ESL Conversation Thursday 9:30 - 10:30 am. ESL Sunday School class Sundays 9:15 am.<br>www.richmondhillbaptist.com</div>]]></description>
    <styleUrl>#style9</styleUrl>
    <Point>
      <coordinates>-114.175697,51.013676,0.000000</coordinates>
    </Point>
  </Placemark>
  <Placemark>
    <name>River Park Church</name>
    <description><![CDATA[<div dir="ltr">ESL Bible study on Tuesdays 9:00-11:00 am. Women only.<br>www.riverparkchurch.com</div>]]></description>
    <styleUrl>#style19</styleUrl>
    <Point>
      <coordinates>-114.094452,51.021072,0.000000</coordinates>
    </Point>
  </Placemark>
  <Placemark>
    <name>Rockpointe Church (Westhills Site)</name>
    <description><![CDATA[<div dir="ltr">www.RockPointe.ca</div>]]></description>
    <styleUrl>#style35</styleUrl>
    <Point>
      <coordinates>-114.2048134,51.0203216,0.000000</coordinates>
    </Point>
  </Placemark>
  <Placemark>
    <name>Royal Oak Victory Church</name>
    <description><![CDATA[<div dir="ltr">Conversation Club Tuesday nights from 6:30 to 8:30 pm.<br>www.rovc.ca</div>]]></description>
    <styleUrl>#style35</styleUrl>
    <Point>
      <coordinates>-114.228073,51.148811,0.000000</coordinates>
    </Point>
  </Placemark>
  <Placemark>
    <name>Salvation Army – Village Site</name>
    <description><![CDATA[<div dir="ltr">Global Café, ESL conversation, Mondays</div>]]></description>
    <styleUrl>#style23</styleUrl>
    <Point>
      <coordinates>-114.1295707,51.0390914,0.000000</coordinates>
    </Point>
  </Placemark>
  <Placemark>
    <name>South Calgary Chinese Evangelical Free Church</name>
    <description><![CDATA[<div dir="ltr">ESL for women only, Monday mornings.<br>www.sccefc.ca</div>]]></description>
    <styleUrl>#style23</styleUrl>
    <Point>
      <coordinates>-114.059975,51.018127,0.000000</coordinates>
    </Point>
  </Placemark>
  <Placemark>
    <name>South Calgary Community Church</name>
    <description><![CDATA[<div dir="ltr">General ESL: Mon &amp; Wed 6-8 pm, Tues &amp; Thurs 9:30-11:30 am, Tues &amp; Thurs 6-8 pm<br>Intermediate Grammar: Mon &amp; Wed 1:00-2:30 pm<br>www.southcalgary.org</div>]]></description>
    <styleUrl>#style21</styleUrl>
    <Point>
      <coordinates>-114.129257,50.957455,0.000000</coordinates>
    </Point>
  </Placemark>
  <Placemark>
    <name>South Gate Alliance Church</name>
    <description><![CDATA[<div dir="ltr">Offer ESL classes and ESL Bible study.<br></div>]]></description>
    <styleUrl>#style12</styleUrl>
    <Point>
      <coordinates>-114.068146,50.918957,0.000000</coordinates>
    </Point>
  </Placemark>
  <Placemark>
    <name>Southwood United Church</name>
    <description><![CDATA[<div dir="ltr">Free conversational ESL classes. Wednesday evenings.<br>http://southwoodchurch.ca</div>]]></description>
    <styleUrl>#style13</styleUrl>
    <Point>
      <coordinates>-114.084328,50.957130,0.000000</coordinates>
    </Point>
  </Placemark>
  <Placemark>
    <name>St. James Anglican Church</name>
    <description><![CDATA[<div dir="ltr">ESL on Wednesday evenings.<br>http://stjamescalgary.com</div>]]></description>
    <styleUrl>#style25</styleUrl>
    <Point>
      <coordinates>-114.181084,51.115067,0.000000</coordinates>
    </Point>
  </Placemark>
  <Placemark>
    <name>St. Luke&#39;s Catholic Church</name>
    <description><![CDATA[<div dir="ltr">ESL Conversation class Monday mornings. Retired teachers.<br>www.stlukeschurch.ca</div>]]></description>
    <styleUrl>#style36</styleUrl>
    <Point>
      <coordinates>-114.140182,51.096123,0.000000</coordinates>
    </Point>
  </Placemark>
  <Placemark>
    <name>St. Michael Catholic Community</name>
    <description><![CDATA[<div dir="ltr">ESL Conversation group Fridays at 10:00 am.<br>www.sntmichael.com</div>]]></description>
    <styleUrl>#style3</styleUrl>
    <Point>
      <coordinates>-114.155548,51.049850,0.000000</coordinates>
    </Point>
  </Placemark>
  <Placemark>
    <name>Truth Baptist Church</name>
    <description><![CDATA[<div dir="ltr">Meet after lunch (together) Sunday 1:30-3:00pm, Mandarin church.<br>In Alberta Bible College.</div>]]></description>
    <styleUrl>#style30</styleUrl>
    <Point>
      <coordinates>-114.088921,51.085773,0.000000</coordinates>
    </Point>
  </Placemark>
  <Placemark>
    <name>Valleyview Presbyterian Church</name>
    <description><![CDATA[<div dir="ltr">Women&apos;s conversation group. $100 for 10 weeks. Small groups, family social included.<br>www.valleyviewpc.net</div>]]></description>
    <styleUrl>#style5</styleUrl>
    <Point>
      <coordinates>-114.198502,51.030193,0.000000</coordinates>
    </Point>
  </Placemark>
  <Placemark>
    <name>Varsity Acres Presbyterian Church</name>
    <description><![CDATA[<div dir="ltr">ESL Saturday mornings 10:00am to 12:00pm.<br>www.vapc.ca</div>]]></description>
    <styleUrl>#style16</styleUrl>
    <Point>
      <coordinates>-114.152115,51.093010,0.000000</coordinates>
    </Point>
  </Placemark>
  <Placemark>
    <name>Westview Baptist Church</name>
    <description><![CDATA[<div dir="ltr">ESL conversation group Monday evenings.<br>www.westviewbaptistchurch.ca</div>]]></description>
    <styleUrl>#style8</styleUrl>
    <Point>
      <coordinates>-114.195137,51.119457,0.000000</coordinates>
    </Point>
  </Placemark>
  <Placemark>
    <name>Woodgreen Presbyterian Church</name>
    <description><![CDATA[<div dir="ltr">Conversation Tues. and Thurs. 9:30–11:30 a.m. (paid pre-school option available)</div>]]></description>
    <styleUrl>#style8</styleUrl>
    <Point>
      <coordinates>-114.0853184,50.9385898,0.000000</coordinates>
    </Point>
  </Placemark>
</Document>
</kml>
